{"features": [{"geometry": {"coordinates": [17.91667, -19.58333], "type": "Point"}, "properties": {"name": "Hoba"}, "type": "Feature"}, {"geometry": {"coordinates": [-64.93333, 76.13333], "type": "Point"}, "properties": {"name": "Cape York"}, "type": "Feature"}, {"geometry": {"coordinates": [-60.58333, -27.46667], "type": "Point"}, "properties": {"name": "Campo del Cielo"}, "type": "Feature"}, {"geometry": {"coordinates": [-111.03333, 35.05], "type": "Point"}, "properties": {"name": "Canyon Diablo"}, "type": "Feature"}, {"geometry": {"coordinates": [88.0, 47.0], "type": "Point"}, "properties": {"name": "Armanty"}, "type": "Feature"}, {"geometry": {"coordinates": [18.0, -25.5], "type": "Point"}, "properties": {"name": "Gibeon"}, "type": "Feature"}, {"geometry": {"coordinates": [-105.1, 27.0], "type": "Point"}, "properties": {"name": "Chupaderos"}, "type": "Feature"}, {"geometry": {"coordinates": [127.55, -30.78333], "type": "Point"}, "properties": {"name": "Mundrabilla"}, "type": "Feature"}, {"geometry": {"coordinates": [134.65333, 46.16], "type": "Point"}, "properties": {"name": "Sikhote-Alin"}, "type": "Feature"}, {"geometry": {"coordinates": [-107.83333, 26.2], "type": "Point"}, "properties": {"name": "Bacubirito"}, "type": "Feature"}, {"geometry": {"coordinates": [33.06667, -9.11667], "type": "Point"}, "properties": {"name": "Mbosi"}, "type": "Feature"}, {"geometry": {"coordinates": [-122.58333, 45.36667], "type": "Point"}, "properties": {"name": "Willamette"}, "type": "Feature"}, {"geometry": {"coordinates": [-105.43333, 27.05], "type": "Point"}, "properties": {"name": "Morito"}, "type": "Feature"}, {"geometry": {"coordinates": [107.7, 25.1], "type": "Point"}, "properties": {"name": "Nantan"}, "type": "Feature"}, {"geometry": {"coordinates": [145.3, -38.1], "type": "Point"}, "properties": {"name": "Cranbourne"}, "type": "Feature"}, {"geometry": {"coordinates": [-48.6, -26.21667], "type": "Point"}, "properties": {"name": "Santa Catharina"}, "type": "Feature"}, {"geometry": {"coordinates": [-39.2, -10.11667], "type": "Point"}, "properties": {"name": "Bendeg\u00cc\u00f8"}, "type": "Feature"}, {"geometry": {"coordinates": [-99.16361, 37.5825], "type": "Point"}, "properties": {"name": "Brenham"}, "type": "Feature"}, {"geometry": {"coordinates": [126.16667, 44.05], "type": "Point"}, "properties": {"name": "Jilin"}, "type": "Feature"}, {"geometry": {"coordinates": [-70.5, -25.75], "type": "Point"}, "properties": {"name": "Vaca Muerta"}, "type": "Feature"}, {"geometry": {"coordinates": [-12.5, 27.5], "type": "Point"}, "properties": {"name": "Al Haggounia 001"}, "type": "Feature"}, {"geometry": {"coordinates": [120.48333, 36.3], "type": "Point"}, "properties": {"name": "Xifu"}, "type": "Feature"}, {"geometry": {"coordinates": [-99.56667, 19.56667], "type": "Point"}, "properties": {"name": "Toluca"}, "type": "Feature"}, {"geometry": {"coordinates": [-115.23333, 34.46667], "type": "Point"}, "properties": {"name": "Old Woman"}, "type": "Feature"}, {"geometry": {"coordinates": [50.47222, 21.49972], "type": "Point"}, "properties": {"name": "Wabar"}, "type": "Feature"}, {"geometry": {"coordinates": [135.76667, -22.36667], "type": "Point"}, "properties": {"name": "Huckitta"}, "type": "Feature"}, {"geometry": {"coordinates": [-109.5, 35.33333], "type": "Point"}, "properties": {"name": "Navajo"}, "type": "Feature"}, {"geometry": {"coordinates": [-102.73333, 28.7], "type": "Point"}, "properties": {"name": "Coahuila"}, "type": "Feature"}, {"geometry": {"coordinates": [-105.31667, 26.96667], "type": "Point"}, "properties": {"name": "Allende"}, "type": "Feature"}, {"geometry": {"coordinates": [133.16667, -24.56667], "type": "Point"}, "properties": {"name": "Henbury"}, "type": "Feature"}, {"geometry": {"coordinates": [-49.15917, -14.258], "type": "Point"}, "properties": {"name": "Campinorte"}, "type": "Feature"}, {"geometry": {"coordinates": [-47.95, -16.26667], "type": "Point"}, "properties": {"name": "Santa Luzia"}, "type": "Feature"}, {"geometry": {"coordinates": [56.14278, 19.22778], "type": "Point"}, "properties": {"name": "Ghubara"}, "type": "Feature"}, {"geometry": {"coordinates": [-102.4, 31.71667], "type": "Point"}, "properties": {"name": "Odessa (iron)"}, "type": "Feature"}, {"geometry": {"coordinates": [26.08778, 22.01833], "type": "Point"}, "properties": {"name": "Gebel Kamil"}, "type": "Feature"}, {"geometry": {"coordinates": [-107.8, 30.4], "type": "Point"}, "properties": {"name": "Casas Grandes"}, "type": "Feature"}, {"geometry": {"coordinates": [6.53333, 49.96667], "type": "Point"}, "properties": {"name": "Bitburg"}, "type": "Feature"}, {"geometry": {"coordinates": [-115.53333, 38.08333], "type": "Point"}, "properties": {"name": "Quinn Canyon"}, "type": "Feature"}, {"geometry": {"coordinates": [-101.01667, 23.08333], "type": "Point"}, "properties": {"name": "Charcas"}, "type": "Feature"}, {"geometry": {"coordinates": [-98.3, 19.21667], "type": "Point"}, "properties": {"name": "Santa Apolonia"}, "type": "Feature"}, {"geometry": {"coordinates": [45.7, 48.7], "type": "Point"}, "properties": {"name": "Tsarev"}, "type": "Feature"}, {"geometry": {"coordinates": [44.88333, 20.6], "type": "Point"}, "properties": {"name": "Alkhamasin"}, "type": "Feature"}, {"geometry": {"coordinates": [24.0, -33.61667], "type": "Point"}, "properties": {"name": "Kouga Mountains"}, "type": "Feature"}, {"geometry": {"coordinates": [-120.54167, 41.98], "type": "Point"}, "properties": {"name": "Goose Lake"}, "type": "Feature"}, {"geometry": {"coordinates": [139.9, -29.58333], "type": "Point"}, "properties": {"name": "Murnpeowie"}, "type": "Feature"}, {"geometry": {"coordinates": [-99.86667, 39.68333], "type": "Point"}, "properties": {"name": "Norton County"}, "type": "Feature"}, {"geometry": {"coordinates": [59.2, 42.25], "type": "Point"}, "properties": {"name": "Kunya-Urgench"}, "type": "Feature"}, {"geometry": {"coordinates": [87.63333, 44.43333], "type": "Point"}, "properties": {"name": "Fukang"}, "type": "Feature"}, {"geometry": {"coordinates": [160.8, 67.3], "type": "Point"}, "properties": {"name": "Bilibino"}, "type": "Feature"}, {"geometry": {"coordinates": [-66.85, -29.41667], "type": "Point"}, "properties": {"name": "Los Sauces"}, "type": "Feature"}, {"geometry": {"coordinates": [-110.96667, 31.85], "type": "Point"}, "properties": {"name": "Tucson"}, "type": "Feature"}, {"geometry": {"coordinates": [-83.25, 35.78333], "type": "Point"}, "properties": {"name": "Cosby's Creek"}, "type": "Feature"}, {"geometry": {"coordinates": [-68.80667, -24.20333], "type": "Point"}, "properties": {"name": "Imilac"}, "type": "Feature"}, {"geometry": {"coordinates": [122.45, 13.51667], "type": "Point"}, "properties": {"name": "Bondoc"}, "type": "Feature"}, {"geometry": {"coordinates": [-73.0, 5.91667], "type": "Point"}, "properties": {"name": "Santa Rosa"}, "type": "Feature"}, {"geometry": {"coordinates": [30.33333, 52.5], "type": "Point"}, "properties": {"name": "Brahin"}, "type": "Feature"}, {"geometry": {"coordinates": [-81.865, 32.94889], "type": "Point"}, "properties": {"name": "Sardis"}, "type": "Feature"}, {"geometry": {"coordinates": [-95.0, 32.0], "type": "Point"}, "properties": {"name": "Red River"}, "type": "Feature"}, {"geometry": {"coordinates": [127.76667, -19.3], "type": "Point"}, "properties": {"name": "Wolf Creek"}, "type": "Feature"}, {"geometry": {"coordinates": [-71.33333, -42.9], "type": "Point"}, "properties": {"name": "Esquel"}, "type": "Feature"}, {"geometry": {"coordinates": [151.3, -23.9], "type": "Point"}, "properties": {"name": "Gladstone (iron)"}, "type": "Feature"}, {"geometry": {"coordinates": [119.71667, -29.45], "type": "Point"}, "properties": {"name": "Mount Dooling"}, "type": "Feature"}, {"geometry": {"coordinates": [-101.78333, 34.11667], "type": "Point"}, "properties": {"name": "Plainview (1917)"}, "type": "Feature"}, {"geometry": {"coordinates": [87.8, 32.2], "type": "Point"}, "properties": {"name": "Ngiangri"}, "type": "Feature"}, {"geometry": {"coordinates": [91.8, 54.9], "type": "Point"}, "properties": {"name": "Krasnojarsk"}, "type": "Feature"}, {"geometry": {"coordinates": [-104.25, 30.75], "type": "Point"}, "properties": {"name": "Davis Mountains"}, "type": "Feature"}, {"geometry": {"coordinates": [-109.98333, 30.33333], "type": "Point"}, "properties": {"name": "Arispe"}, "type": "Feature"}, {"geometry": {"coordinates": [-50.15, -15.58333], "type": "Point"}, "properties": {"name": "Itapuranga"}, "type": "Feature"}, {"geometry": {"coordinates": [6.78333, 43.73333], "type": "Point"}, "properties": {"name": "La Caille"}, "type": "Feature"}, {"geometry": {"coordinates": [109.5, 30.80833], "type": "Point"}, "properties": {"name": "Jianshi"}, "type": "Feature"}, {"geometry": {"coordinates": [95.41667, 44.86667], "type": "Point"}, "properties": {"name": "Adzhi-Bogdo (iron)"}, "type": "Feature"}, {"geometry": {"coordinates": [-99.6, 39.93333], "type": "Point"}, "properties": {"name": "Long Island"}, "type": "Feature"}, {"geometry": {"coordinates": [55.73333, 19.7], "type": "Point"}, "properties": {"name": "JaH 073"}, "type": "Feature"}, {"geometry": {"coordinates": [21.13333, -28.83333], "type": "Point"}, "properties": {"name": "Rateldraai"}, "type": "Feature"}, {"geometry": {"coordinates": [-112.9, 39.5], "type": "Point"}, "properties": {"name": "Drum Mountains"}, "type": "Feature"}, {"geometry": {"coordinates": [-107.88333, 35.16667], "type": "Point"}, "properties": {"name": "Grant"}, "type": "Feature"}, {"geometry": {"coordinates": [-0.25, 27.71667], "type": "Point"}, "properties": {"name": "Tamentit"}, "type": "Feature"}, {"geometry": {"coordinates": [-88.13333, 43.36667], "type": "Point"}, "properties": {"name": "Trenton"}, "type": "Feature"}, {"geometry": {"coordinates": [125.63333, -31.38333], "type": "Point"}, "properties": {"name": "Haig"}, "type": "Feature"}, {"geometry": {"coordinates": [55.26667, 57.78333], "type": "Point"}, "properties": {"name": "Ochansk"}, "type": "Feature"}, {"geometry": {"coordinates": [120.85, -28.23333], "type": "Point"}, "properties": {"name": "Wildara"}, "type": "Feature"}, {"geometry": {"coordinates": [-60.96667, -33.11667], "type": "Point"}, "properties": {"name": "El Timbu"}, "type": "Feature"}, {"geometry": {"coordinates": [135.2, -22.61667], "type": "Point"}, "properties": {"name": "Boxhole"}, "type": "Feature"}, {"geometry": {"coordinates": [110.83333, -7.56667], "type": "Point"}, "properties": {"name": "Prambanan"}, "type": "Feature"}, {"geometry": {"coordinates": [22.4, 48.9], "type": "Point"}, "properties": {"name": "Knyahinya"}, "type": "Feature"}, {"geometry": {"coordinates": [110.73333, -6.6], "type": "Point"}, "properties": {"name": "Jepara"}, "type": "Feature"}, {"geometry": {"coordinates": [3.58333, 48.48333], "type": "Point"}, "properties": {"name": "Saint-Aubin"}, "type": "Feature"}, {"geometry": {"coordinates": [-111.5, 29.66667], "type": "Point"}, "properties": {"name": "Carbo"}, "type": "Feature"}, {"geometry": {"coordinates": [-101.9, 35.98333], "type": "Point"}, "properties": {"name": "Etter"}, "type": "Feature"}, {"geometry": {"coordinates": [56.66667, 20.51667], "type": "Point"}, "properties": {"name": "SaU 001"}, "type": "Feature"}, {"geometry": {"coordinates": [91.4025, 44.95667], "type": "Point"}, "properties": {"name": "Ulasitai"}, "type": "Feature"}, {"geometry": {"coordinates": [-113.7, 35.8], "type": "Point"}, "properties": {"name": "Wallapai"}, "type": "Feature"}, {"geometry": {"coordinates": [-90.5, 36.06667], "type": "Point"}, "properties": {"name": "Paragould"}, "type": "Feature"}, {"geometry": {"coordinates": [159.66667, -76.71667], "type": "Point"}, "properties": {"name": "ALHA76009"}, "type": "Feature"}, {"geometry": {"coordinates": [117.0, 34.7], "type": "Point"}, "properties": {"name": "Pei Xian"}, "type": "Feature"}, {"geometry": {"coordinates": [35.08333, 48.06667], "type": "Point"}, "properties": {"name": "Augustinovka"}, "type": "Feature"}, {"geometry": {"coordinates": [-77.21667, 39.78333], "type": "Point"}, "properties": {"name": "Mount Joy"}, "type": "Feature"}, {"geometry": {"coordinates": [4.86667, 49.55], "type": "Point"}, "properties": {"name": "Mont Dieu"}, "type": "Feature"}], "type": "FeatureCollection"}